City_ID,City,Lat,Lng,Max Temp,Humidity,Cloudiness,Wind Speed,Country,Date
0,barrow,71.2906,-156.7887,-23.8,62,90,10.36,US,1612496250
1,qaanaaq,77.484,-69.3632,-17.95,63,74,8.28,GL,1612496370
2,hami,42.8,93.45,35.83,71,0,2.91,CN,1612496370
3,tiksi,71.6872,128.8694,-15.2,90,100,9.8,RU,1612496140
4,tuktoyaktuk,69.4541,-133.0374,-31.0,68,40,10.36,CA,1612496370
5,kisangani,0.5167,25.2,70.68,97,75,2.08,CD,1612496370
6,castro,-24.7911,-50.0119,60.87,89,1,5.17,BR,1612496371
7,diphu,25.8333,93.4333,74.73,41,0,2.37,IN,1612496371
8,kaitangata,-46.2817,169.8464,60.01,71,77,13.0,NZ,1612496128
9,punta arenas,-53.15,-70.9167,48.2,61,75,11.5,CL,1612496371
10,mount gambier,-37.8333,140.7667,71.6,46,75,18.41,AU,1612496372
11,leningradskiy,69.3833,178.4167,-25.89,85,100,11.3,RU,1612496325
12,cabo san lucas,22.8909,-109.9124,73.4,46,20,6.85,MX,1612496332
13,jamestown,42.097,-79.2353,36.0,35,90,12.66,US,1612496244
14,mogadishu,2.0371,45.3438,77.59,78,67,17.72,SO,1612496372
15,hobyo,5.3505,48.5268,76.71,74,74,17.25,SO,1612496373
16,luanda,-8.8368,13.2343,78.8,83,75,3.44,AO,1612496373
17,prainha,-1.8,-53.48,77.31,79,31,5.48,BR,1612496373
18,shenjiamen,29.9576,122.298,52.16,89,98,7.96,CN,1612496373
19,dunedin,-45.8742,170.5036,55.99,70,67,25.99,NZ,1612496373
20,jacqueville,5.2052,-4.4146,82.4,94,20,5.75,CI,1612496374
21,hermanus,-34.4187,19.2345,64.0,91,21,1.01,ZA,1612496374
22,victoria,22.2855,114.1577,69.01,69,32,3.0,HK,1612496374
23,busselton,-33.65,115.3333,73.99,42,1,1.99,AU,1612496283
24,hamilton,39.1834,-84.5333,37.99,93,90,12.66,US,1612496168
25,rankovce,42.1696,22.1162,32.0,93,0,2.8,MK,1612496375
26,belmonte,-15.8631,-38.8828,77.0,83,20,6.91,BR,1612496137
27,airai,-8.9266,125.4092,64.72,100,100,3.47,TL,1612496288
28,kampot,10.6167,104.1833,84.2,61,40,4.61,KH,1612496174
29,olafsvik,64.8945,-23.7142,38.52,79,100,35.81,IS,1612496376
30,khatanga,71.9667,102.5,-30.93,77,0,8.14,RU,1612496376
31,inta,66.0317,60.1659,-2.85,88,100,14.97,RU,1612496376
32,rikitea,-23.1203,-134.9692,78.35,72,100,12.86,PF,1612496224
33,marawi,7.9986,124.2928,81.0,84,58,7.0,PH,1612496207
34,hobart,-42.8794,147.3294,79.0,69,75,17.27,AU,1612496332
35,luganville,-15.5333,167.1667,83.39,71,92,7.54,VU,1612496377
36,atuona,-9.8,-139.0333,78.76,74,3,10.83,PF,1612496377
37,camacha,33.0833,-16.3333,55.4,67,40,16.11,PT,1612496377
38,puerto ayora,-0.7393,-90.3518,77.0,95,35,1.99,EC,1612496225
39,butaritari,3.0707,172.7902,80.83,83,97,13.78,KI,1612496293
40,vigrestad,58.5667,5.7,17.6,53,0,4.61,NO,1612496378
41,vao,-22.6667,167.4833,78.91,88,0,15.08,NC,1612496142
42,tual,-5.6667,132.75,83.41,77,100,25.14,ID,1612496379
43,phan thiet,10.9333,108.1,84.11,52,23,5.97,VN,1612496240
44,tafo,6.7345,-1.6127,73.63,91,9,3.78,GH,1612496379
45,pontalina,-17.525,-49.4472,71.31,88,100,2.44,BR,1612496379
46,codrington,-38.2667,141.9667,70.5,37,26,5.53,AU,1612496135
47,kem,64.9555,34.5793,6.35,94,100,15.28,RU,1612496380
48,lerwick,60.1545,-1.1494,35.6,64,90,20.71,GB,1612496380
49,ilulissat,69.2167,-51.1,3.2,39,40,23.02,GL,1612496228
50,lyuban,52.7985,28.0048,9.0,95,90,9.42,BY,1612496381
51,novoorsk,51.381,58.9813,33.8,100,90,8.95,RU,1612496381
52,yulara,-25.2406,130.9889,68.0,68,90,13.8,AU,1612496083
53,upernavik,72.7868,-56.1549,-4.4,71,99,7.92,GL,1612496305
54,kenitra,34.261,-6.5802,51.8,100,75,5.79,MA,1612496382
55,gat,31.61,34.7642,55.99,100,100,3.78,IL,1612496343
56,copiapo,-27.3667,-70.3333,60.8,82,90,8.05,CL,1612496382
57,mataura,-46.1927,168.8643,75.43,39,81,1.83,NZ,1612496382
58,chokurdakh,70.6333,147.9167,-15.32,86,98,20.56,RU,1612496383
59,chuy,-33.6971,-53.4616,64.85,78,89,13.65,UY,1612496242
60,puerto colombia,10.9878,-74.9547,78.8,83,20,8.05,CO,1612496298
61,saraland,30.8207,-88.0706,62.01,88,92,8.99,US,1612496383
62,hilo,19.7297,-155.09,71.6,73,75,16.11,US,1612496135
63,tasiilaq,65.6145,-37.6368,26.6,80,75,11.5,GL,1612496310
64,fortuna,40.5982,-124.1573,48.0,87,1,4.54,US,1612496287
65,ribeira grande,38.5167,-28.7,55.58,68,56,18.32,PT,1612496174
66,te anau,-45.4167,167.7167,75.72,39,61,2.55,NZ,1612496385
67,altay,47.8667,88.1167,21.52,90,84,0.6,CN,1612496385
68,krasnoselkup,65.7,82.4667,-27.27,85,14,5.95,RU,1612496153
69,quatre cocos,-20.2078,57.7625,80.01,83,40,2.3,MU,1612496279
70,altamira,-3.2033,-52.2064,73.71,88,12,3.56,BR,1612496385
71,coquimbo,-29.9533,-71.3436,60.8,82,90,6.91,CL,1612496250
72,aguie,13.506,7.7786,63.59,27,0,10.58,NE,1612496386
73,belozerskoye,55.8214,65.5842,30.88,99,100,5.46,RU,1612496386
74,saldanha,-33.0117,17.9442,59.0,82,0,3.44,ZA,1612496386
75,dikson,73.5069,80.5464,-14.57,88,98,10.04,RU,1612496386
76,bukama,-9.2,25.85,68.5,89,100,2.55,CD,1612496387
77,sakakah,29.9697,40.2064,51.8,87,40,6.91,SA,1612496387
78,takoradi,4.8845,-1.7554,78.67,89,0,7.11,GH,1612496132
79,cape town,-33.9258,18.4232,66.99,88,0,10.36,ZA,1612496228
80,ushuaia,-54.8,-68.3,44.6,81,40,29.93,AR,1612496157
81,avarua,-21.2078,-159.775,84.2,65,20,3.44,CK,1612496388
82,yellowknife,62.456,-114.3525,-31.0,75,1,6.91,CA,1612496138
83,georgetown,5.4112,100.3354,86.0,54,20,3.44,MY,1612496287
84,amapa,1.0,-52.0,69.89,98,100,1.81,BR,1612496388
85,karratha,-20.7377,116.8463,85.89,67,26,15.61,AU,1612496333
86,namibe,-15.1961,12.1522,69.62,77,20,8.93,AO,1612496389
87,new norfolk,-42.7826,147.0587,79.0,70,100,1.01,AU,1612496137
88,nome,64.5011,-165.4064,10.0,72,90,17.27,US,1612496328
89,nanortalik,60.1432,-45.2371,21.38,79,100,8.3,GL,1612496138
90,albany,42.6001,-73.9662,26.01,63,18,2.82,US,1612496389
91,lithakia,37.7167,20.8333,50.0,93,40,1.61,GR,1612496390
92,wundanyi,-3.4019,38.364,60.44,100,39,3.47,KE,1612496390
93,bluff,-46.6,168.3333,58.37,73,87,11.45,NZ,1612496142
94,sinnamary,5.3833,-52.95,76.84,81,75,13.33,GF,1612496390
95,nikolskoye,59.7035,30.7861,7.0,84,20,11.18,RU,1612496390
96,pangnirtung,66.1451,-65.7125,5.88,88,98,2.84,CA,1612496391
97,pamekasan,-7.1568,113.4746,83.73,77,64,19.13,ID,1612496391
98,egvekinot,66.3167,-179.1667,-20.74,90,100,17.05,RU,1612496391
99,snezhnogorsk,69.1933,33.2531,-2.2,78,40,7.11,RU,1612496391
100,brasilia de minas,-16.2064,-44.4333,68.25,88,42,3.65,BR,1612496392
101,namatanai,-3.6667,152.4333,84.38,72,21,4.12,PG,1612496143
102,saint-philippe,-21.3585,55.7679,82.0,74,0,5.75,RE,1612496242
103,solano,38.2333,-121.9511,51.01,49,1,4.61,US,1612496393
104,hasaki,35.7333,140.8333,50.0,34,20,8.05,JP,1612496266
105,east london,-33.0153,27.9116,68.0,94,75,2.3,ZA,1612496230
106,buala,-8.145,159.5921,85.26,71,1,8.3,SB,1612496245
107,tazovskiy,67.4667,78.7,-27.22,86,100,7.52,RU,1612496393
108,hofn,64.2539,-15.2082,36.48,79,100,17.25,IS,1612496394
109,verkhnevilyuysk,63.4453,120.3167,-33.65,81,40,2.28,RU,1612496394
110,pitimbu,-7.4706,-34.8086,78.8,83,20,5.75,BR,1612496394
111,huicungo,-7.2833,-76.8,71.62,90,100,1.57,PE,1612496394
112,hun,29.1268,15.9477,55.99,87,8,4.61,LY,1612496394
113,marzuq,14.4,46.4667,57.96,46,0,3.58,YE,1612496395
114,vitim,59.4511,112.5578,-5.67,87,100,1.48,RU,1612496395
115,makakilo city,21.3469,-158.0858,75.2,50,20,11.5,US,1612496225
116,vaini,-21.2,-175.2,80.6,94,75,5.75,TO,1612496395
117,los angeles,34.0522,-118.2437,59.0,67,1,2.98,US,1612496396
118,muswellbrook,-32.2667,150.9,94.91,28,0,2.33,AU,1612496396
119,esperance,-33.8667,121.9,64.4,52,90,14.97,AU,1612496143
120,bredasdorp,-34.5322,20.0403,60.8,88,3,1.14,ZA,1612496396
121,temryuk,45.2722,37.3811,48.2,81,71,6.71,RU,1612496114
122,xinpu,34.5997,119.1594,52.77,44,100,11.21,CN,1612496397
123,manggar,-2.8833,108.2667,86.18,66,96,13.06,ID,1612496397
124,souillac,-20.5167,57.5167,77.0,83,40,2.3,MU,1612496244
125,cuenca,-2.8833,-78.9833,57.2,94,100,4.61,EC,1612496177
126,kieta,-6.2167,155.6333,85.17,71,42,6.67,PG,1612496262
127,nyurba,63.2842,118.3319,-33.5,82,66,3.98,RU,1612496282
128,san patricio,28.017,-97.5169,69.8,83,1,8.05,US,1612496138
129,the valley,18.217,-63.0578,78.8,73,20,13.8,AI,1612496399
130,mbanza-ngungu,-5.25,14.8667,69.08,100,100,2.55,CD,1612496399
131,iqaluit,63.7506,-68.5145,14.0,79,90,8.05,CA,1612496302
132,pisco,-13.7,-76.2167,73.0,78,0,11.5,PE,1612496399
133,brae,60.3964,-1.353,35.6,64,90,20.71,GB,1612496400
134,zherdevka,51.8486,41.4606,35.78,98,100,7.78,RU,1612496400
135,batagay-alyta,67.8006,130.4114,-20.24,86,100,2.95,RU,1612496400
136,zalantun,48.0,122.7167,20.19,88,10,8.25,CN,1612496400
137,innisfail,-17.5333,146.0333,85.41,64,87,8.1,AU,1612496401
138,port elizabeth,-33.918,25.5701,60.8,88,0,5.48,ZA,1612496367
139,lebu,-37.6167,-73.65,59.29,84,0,4.9,CL,1612496401
140,cabinda,-5.55,12.2,80.13,85,100,6.89,AO,1612496401
141,maroua,10.591,14.3159,65.07,27,14,9.17,CM,1612496403
142,maniitsoq,65.4167,-52.9,13.89,72,100,2.98,GL,1612496240
143,inuvik,68.3499,-133.7218,-36.4,74,100,8.05,CA,1612496404
144,meulaboh,4.1363,96.1285,85.86,61,49,0.63,ID,1612496404
145,monrovia,6.3005,-10.7969,75.2,94,20,5.97,LR,1612496404
146,port alfred,-33.5906,26.891,68.0,87,53,1.99,ZA,1612496224
147,port-gentil,-0.7193,8.7815,81.52,80,84,7.83,GA,1612496404
148,labuhan,-6.8844,112.2051,82.99,80,87,19.17,ID,1612496405
149,superior,46.7208,-92.1041,14.0,62,90,18.41,US,1612496405
150,garissa,-0.4536,39.6401,73.53,82,1,4.43,KE,1612496308
151,raudeberg,61.9875,5.1352,21.99,57,0,9.22,NO,1612496405
152,iberia,29.9502,-91.7507,66.2,94,90,10.36,US,1612496335
153,piacabucu,-10.4056,-36.4344,78.1,81,55,11.05,BR,1612496406
154,axim,4.8699,-2.2405,78.91,88,5,5.53,GH,1612496406
155,srednekolymsk,67.45,153.6833,-6.38,84,83,15.32,RU,1612496259
156,praia da vitoria,38.7333,-27.0667,51.8,87,75,20.07,PT,1612496407
157,werda,-25.2667,23.2833,67.66,88,45,5.3,BW,1612496407
158,la ronge,55.1001,-105.2842,-0.4,71,100,11.5,CA,1612496155
159,kharan,28.5833,65.4167,54.55,34,0,1.74,PK,1612496407
160,tabas,33.5959,56.9244,39.2,28,0,4.61,IR,1612496407
161,broken hill,-31.95,141.4333,71.6,37,40,12.66,AU,1612496273
162,richards bay,-28.783,32.0377,73.71,89,82,7.61,ZA,1612496267
163,ketchikan,55.3422,-131.6461,39.2,100,75,10.36,US,1612496408
164,bose,45.4612,8.0137,46.0,96,100,0.89,IT,1612496409
165,hithadhoo,-0.6,73.0833,82.33,78,100,11.97,MV,1612496409
166,san quintin,30.4833,-115.95,56.32,78,51,8.12,MX,1612496296
167,baiyin,36.5583,104.2081,30.2,29,0,6.71,CN,1612496177
168,sembe,1.6481,14.5806,71.55,86,78,1.1,CG,1612496409
169,kajaani,64.2273,27.7285,-5.8,84,40,3.44,FI,1612496410
170,khani,41.9563,42.9566,51.8,66,90,12.66,GE,1612496410
171,le port,-20.9373,55.2919,75.2,83,75,4.61,RE,1612496410
172,vila franca do campo,37.7167,-25.4333,53.6,71,40,11.5,PT,1612496410
173,kasiri,8.9412,-13.1148,74.52,83,33,5.61,SL,1612496410
174,kodiak,57.79,-152.4072,24.8,80,1,8.05,US,1612496411
175,whitehorse,60.7161,-135.0538,-11.2,77,1,3.44,CA,1612496411
176,linxia,35.6003,103.2064,35.76,56,0,2.51,CN,1612496411
177,dwarka,22.2394,68.9678,71.42,43,0,14.25,IN,1612496243
178,longyearbyen,78.2186,15.6401,19.4,68,75,12.66,SJ,1612496411
179,tutoia,-2.7619,-42.2744,79.79,76,18,12.77,BR,1612496412
180,san ramon,37.7799,-121.978,51.8,57,1,5.75,US,1612496378
181,phalaborwa,-23.943,31.1411,73.98,93,100,4.81,ZA,1612496412
182,pochutla,15.7432,-96.4661,77.0,89,76,1.99,MX,1612496412
183,mahebourg,-20.4081,57.7,77.0,83,40,2.3,MU,1612496399
184,muros,42.7762,-9.0603,45.0,94,65,8.16,ES,1612496413
185,soyo,-6.1349,12.3689,80.15,85,100,9.69,AO,1612496290
186,sesheke,-17.4759,24.2968,66.96,93,83,5.3,ZM,1612496413
187,trincomalee,8.5711,81.2335,78.76,76,65,12.57,LK,1612496308
188,havre-saint-pierre,50.2334,-63.5986,32.0,100,90,5.75,CA,1612496414
189,pachino,36.7186,15.0907,44.6,93,75,3.44,IT,1612496414
190,porto walter,-8.2686,-72.7439,72.59,97,100,1.16,BR,1612496414
191,teguise,29.0605,-13.564,55.4,76,20,11.5,ES,1612496298
192,bytow,54.1706,17.4919,16.0,92,20,2.3,PL,1612496330
193,bambous virieux,-20.3428,57.7575,81.0,83,40,2.3,MU,1612496415
194,tromso,69.6496,18.957,30.2,86,75,13.8,NO,1612496415
195,talnakh,69.4865,88.3972,-23.53,85,99,1.16,RU,1612496219
196,vostok,46.4856,135.8833,1.27,84,7,5.06,RU,1612496136
197,nemuro,43.3236,145.575,19.4,49,75,11.5,JP,1612496309
198,bullhead city,35.1478,-114.5683,59.0,51,1,10.36,US,1612496416
199,broome,42.2506,-75.833,30.2,59,1,4.61,US,1612496416
200,zlobin,45.2924,14.6541,54.0,94,75,4.61,HR,1612496416
201,bengkulu,-3.8004,102.2655,85.51,60,33,5.53,ID,1612496285
202,lakes entrance,-37.8811,147.981,84.99,46,92,7.0,AU,1612496416
203,sundargarh,22.1167,84.0333,66.2,48,0,2.3,IN,1612496229
204,lamar,33.6668,-95.5836,46.0,57,1,10.36,US,1612496417
205,almunecar,36.7339,-3.6907,61.0,78,52,13.67,ES,1612496417
206,leh,34.1667,77.5833,10.98,66,100,0.58,IN,1612496418
207,huescar,37.811,-2.5412,51.01,90,83,3.0,ES,1612496418
208,imbituba,-28.24,-48.6703,73.4,73,0,8.05,BR,1612496418
209,palmerston,-12.486,130.9833,77.0,94,75,13.8,AU,1612496418
210,cuamba,-14.8031,36.5372,69.62,97,52,1.21,MZ,1612496418
211,guerrero negro,27.9769,-114.0611,60.04,74,100,15.03,MX,1612496419
212,fayaoue,-20.65,166.5333,80.91,81,1,15.61,NC,1612496419
213,norman wells,65.282,-126.8329,-41.8,66,40,6.91,CA,1612496312
214,vossevangen,60.623,6.4229,19.0,86,0,5.41,NO,1612496420
215,arman,59.7,150.1667,-0.54,82,83,13.76,RU,1612496137
216,jilin,43.0,126.0,30.97,93,0,16.82,CN,1612496420
217,kavaratti,10.5669,72.642,81.19,75,69,12.12,IN,1612496420
218,clyde river,70.4692,-68.5914,-22.0,76,90,19.57,CA,1612496420
219,xilopolis,40.9271,23.1794,48.99,67,100,1.97,GR,1612496421
220,novyye lyady,58.0536,56.6039,26.6,93,90,8.95,RU,1612496421
221,miandrivazo,-19.5167,45.4667,78.76,81,100,3.15,MG,1612496421
222,boa vista,2.8197,-60.6733,77.0,88,90,16.11,BR,1612496421
223,xingcheng,40.6167,120.7167,44.98,51,0,8.61,CN,1612496421
224,sanmenxia,34.7747,111.1814,55.24,33,0,11.99,CN,1612496422
225,jiujiang,29.7333,115.9833,50.11,91,100,5.84,CN,1612496126
226,provideniya,64.3833,-173.3,-4.92,88,100,27.34,RU,1612496303
227,presidencia roque saenz pena,-26.7852,-60.4388,66.02,65,0,4.65,AR,1612496422
228,tabou,4.423,-7.3528,77.45,92,64,7.02,CI,1612496268
229,kentau,43.5206,68.5094,39.47,69,100,3.36,KZ,1612496423
230,oranjemund,-28.55,16.4333,61.63,93,56,9.13,NA,1612496423
231,thompson,55.7435,-97.8558,-11.2,77,90,8.05,CA,1612496423
232,komsomolskiy,40.4272,71.7189,32.0,64,8,6.91,UZ,1612496316
233,cherskiy,68.75,161.3,-6.3,76,91,6.42,RU,1612496302
234,aswan,24.0934,32.907,55.11,72,0,11.72,EG,1612496264
235,auka,14.9333,-83.8333,67.33,84,0,2.1,HN,1612496424
236,iseyin,7.9667,3.6,72.19,93,0,1.74,NG,1612496424
237,husavik,66.0449,-17.3389,26.6,68,0,16.11,IS,1612496425
238,arraial do cabo,-22.9661,-42.0278,78.8,73,0,19.57,BR,1612496248
239,port lincoln,-34.7333,135.8667,67.06,56,52,23.55,AU,1612496154
240,dudinka,69.4058,86.1778,-31.67,85,100,1.79,RU,1612496425
241,manturovo,58.3353,44.7619,11.41,96,100,3.49,RU,1612496425
242,baykit,61.67,96.37,0.93,89,100,3.15,RU,1612496426
243,kapaa,22.0752,-159.319,68.0,60,75,12.66,US,1612496426
244,calbuco,-41.768,-73.1273,62.6,72,0,6.91,CL,1612496426
245,puerto del rosario,28.5004,-13.8627,57.2,62,85,19.57,ES,1612496426
246,at-bashi,41.1702,75.8106,13.33,66,3,0.29,KG,1612496426
247,mount isa,-20.7333,139.5,98.6,36,40,16.11,AU,1612496427
248,joshimath,30.5667,79.5667,42.4,54,35,1.32,IN,1612496290
249,severo-kurilsk,50.6789,156.125,13.1,85,74,9.89,RU,1612496427
250,matamoros,25.5333,-103.25,77.0,11,1,1.83,MX,1612496427
251,langxiang,46.95,128.8833,15.57,90,98,1.9,CN,1612496228
252,toamasina,-18.1667,49.3833,75.2,94,20,4.61,MG,1612496428
253,malanje,-9.5402,16.341,62.44,99,99,3.06,AO,1612496428
254,chegdomyn,51.1167,133.0167,-15.81,81,50,2.19,RU,1612496428
255,vardo,70.3705,31.1107,17.6,79,40,13.8,NO,1612496429
256,belen,36.4891,36.2233,51.8,76,40,6.91,TR,1612496429
257,panalingaan,8.7842,117.4231,86.04,60,98,5.68,PH,1612496429
258,tevaitoa,-16.7833,-151.5,82.17,66,1,7.09,PF,1612496429
259,katsuura,35.1333,140.3,52.0,40,20,6.91,JP,1612496292
260,katobu,-4.9408,122.5276,86.16,66,99,5.59,ID,1612496430
261,kununurra,-15.7667,128.7333,91.4,66,40,8.05,AU,1612496305
262,palmer,42.1584,-72.3287,25.0,92,20,4.61,US,1612496284
263,darovskoy,58.77,47.9564,14.67,96,100,1.43,RU,1612496430
264,flin flon,54.7682,-101.865,-5.96,90,100,8.39,CA,1612496269
265,santa maria do suacui,-18.1903,-42.4142,67.44,92,6,1.03,BR,1612496431
266,donnacona,46.6804,-71.7239,24.8,100,20,1.45,CA,1612496188
267,vanavara,60.34,102.2797,-7.08,90,89,3.22,RU,1612496161
268,xichang,27.8964,102.2634,56.66,43,3,3.04,CN,1612496235
269,pombal,-6.7703,-37.8017,77.41,67,26,8.46,BR,1612496432
270,kavieng,-2.5744,150.7967,83.97,74,70,4.97,PG,1612496432
271,tymovskoye,50.8456,142.655,-4.27,84,99,3.31,RU,1612496432
272,saint george,37.1041,-113.5841,46.99,29,1,4.61,US,1612496432
273,banda aceh,5.5577,95.3222,83.89,68,38,15.5,ID,1612496433
274,lircay,-12.9896,-74.7205,49.75,77,100,4.81,PE,1612496433
275,gusau,12.1628,6.6614,67.46,23,0,13.58,NG,1612496433
276,grindavik,63.8424,-22.4338,37.4,81,75,25.32,IS,1612496433
277,nakambala,-15.8324,27.7799,64.4,94,50,2.71,ZM,1612496433
278,araouane,18.9048,-3.5265,70.99,18,94,7.07,ML,1612496434
279,margate,51.3813,1.3862,46.99,89,32,1.99,GB,1612496434
280,kudahuvadhoo,2.6708,72.8944,82.02,72,100,18.9,MV,1612496434
281,russell,32.3502,-85.1999,54.0,58,90,8.66,US,1612496435
282,kalmunai,7.4167,81.8167,78.3,82,100,11.3,LK,1612496435
283,coahuayana,18.7333,-103.6833,69.96,89,10,2.71,MX,1612496435
284,kepno,51.2784,17.9891,30.99,87,80,6.06,PL,1612496435
285,hambantota,6.1241,81.1185,77.0,83,40,4.61,LK,1612496246
286,lompoc,34.6391,-120.4579,51.8,82,1,4.61,US,1612496157
287,faanui,-16.4833,-151.75,82.13,65,1,5.08,PF,1612496436
288,methoni,36.8197,21.7049,51.01,100,2,3.44,GR,1612496436
289,laguna,38.421,-121.4238,50.0,69,19,1.28,US,1612496232
290,ponta do sol,32.6667,-17.1,51.01,66,92,5.01,PT,1612496139
291,ahipara,-35.1667,173.1667,69.44,69,100,6.73,NZ,1612496153
292,ken caryl,39.5773,-105.1169,33.01,50,37,1.01,US,1612496437
293,novyy urengoy,66.0833,76.6333,-23.57,87,27,7.74,RU,1612496437
294,udachnyy,66.4167,112.4,-34.69,79,11,3.56,RU,1612496438
295,eureka,40.8021,-124.1637,48.0,81,2,5.12,US,1612496416
296,mar del plata,-38.0023,-57.5575,64.0,77,40,6.91,AR,1612496438
297,auce,56.4598,22.9017,12.2,85,0,10.36,LV,1612496438
298,alofi,-19.0595,-169.9187,82.4,78,90,8.05,NU,1612496438
299,puerto leguizamo,-0.1934,-74.7819,73.35,94,99,1.66,CO,1612496439
300,gustrow,53.7972,12.1734,30.2,86,75,9.22,DE,1612496439
301,luderitz,-26.6481,15.1594,64.98,68,0,17.43,NA,1612496237
302,baherden,38.4362,57.4316,52.18,41,88,5.01,TM,1612496150
303,amarante do maranhao,-5.5667,-46.7422,72.0,95,98,3.47,BR,1612496439
304,svarstad,59.399,9.9698,12.0,76,16,4.0,NO,1612496440
305,tuntum,-5.2581,-44.6489,73.26,95,100,2.77,BR,1612496440
306,tuim,54.3417,89.9261,10.47,91,95,4.25,RU,1612496440
307,araguacu,-12.9306,-49.8264,74.12,89,74,3.33,BR,1612496440
308,mecca,21.4267,39.8261,68.7,58,81,15.99,SA,1612496228
309,sturgis,41.7992,-85.4192,33.8,93,90,16.11,US,1612496441
310,santo nino,6.435,124.6975,87.8,62,75,12.66,PH,1612496441
311,kahului,20.8947,-156.47,71.6,60,90,12.66,US,1612496230
312,rio gallegos,-51.6226,-69.2181,51.8,50,0,16.11,AR,1612496442
313,xining,36.6167,101.7667,29.16,55,0,3.22,CN,1612496331
314,necochea,-38.5473,-58.7368,53.01,92,0,3.78,AR,1612496144
315,saint anthony,45.0205,-93.218,10.4,61,75,17.27,US,1612496442
316,monclova,26.9,-101.4167,69.69,42,13,5.19,MX,1612496442
317,vila velha,-20.3297,-40.2925,79.0,78,40,8.05,BR,1612496290
318,badou,7.5833,0.6,74.16,80,18,0.81,TG,1612496443
319,tautira,-17.7333,-149.15,82.0,65,37,1.99,PF,1612496151
320,lagoa,39.05,-27.9833,54.68,69,43,19.75,PT,1612496443
321,boundiali,9.5217,-6.4869,70.07,25,9,0.78,CI,1612496443
322,marand,38.4329,45.7749,39.2,93,90,4.61,IR,1612496444
323,carnarvon,-24.8667,113.6333,82.4,71,75,19.57,AU,1612496232
324,moussoro,13.6408,16.4901,63.34,29,0,17.9,TD,1612496444
325,smithers,54.7804,-127.1743,24.8,93,90,4.61,CA,1612496445
326,nuuk,64.1835,-51.7216,14.0,57,20,10.36,GL,1612496445
327,narsaq,60.9167,-46.05,15.8,38,50,3.44,GL,1612496445
328,buin,-33.7333,-70.75,73.0,68,0,10.36,CL,1612496413
329,padang,-0.9492,100.3543,87.8,62,20,4.61,ID,1612496445
330,coria,39.9879,-6.5377,48.0,94,100,3.0,ES,1612496446
331,atar,20.5169,-13.0499,57.87,65,100,5.01,MR,1612496446
332,shingu,33.7333,135.9833,51.8,40,0,10.36,JP,1612496446
333,gizo,-8.103,156.8419,84.97,72,25,10.36,SB,1612496446
334,burns lake,54.2331,-125.7533,24.8,93,100,1.14,CA,1612496284
335,praia,14.9215,-23.5087,69.8,73,75,13.8,CV,1612496447
336,christchurch,-43.5333,172.6333,64.4,52,2,11.5,NZ,1612496447
337,fort madison,40.6298,-91.3151,19.4,73,1,16.11,US,1612496447
338,sandur,15.1,76.55,74.98,42,41,12.01,IN,1612496448
339,fort walton beach,30.4058,-86.6188,63.0,94,75,5.75,US,1612496198
340,guangyuan,32.442,105.823,46.99,44,10,4.0,CN,1612496448
341,guymon,36.6828,-101.4816,33.8,47,1,5.75,US,1612496448
342,rio grande,-32.035,-52.0986,64.99,89,66,4.0,BR,1612496448
343,porto novo,6.4965,2.6036,84.2,84,40,6.91,BJ,1612496449
344,miles city,46.4083,-105.8406,24.8,63,75,4.61,US,1612496449
345,oussouye,12.485,-16.5469,71.6,88,0,6.91,SN,1612496327
346,adwa,14.1646,38.8955,50.36,62,0,1.25,ET,1612496320
347,sao jose da coroa grande,-8.8978,-35.1478,77.7,82,19,8.7,BR,1612496449
348,san ignacio,17.1561,-89.0714,69.01,94,0,4.61,BZ,1612496450
349,ihosy,-22.4,46.1167,72.1,85,86,4.14,MG,1612496450
350,hanna,51.6334,-111.9018,10.4,100,82,5.75,CA,1612496450
351,kaeo,-35.1,173.7833,67.78,75,100,5.5,NZ,1612496450
352,chapais,49.7834,-74.8492,8.6,85,1,4.7,CA,1612496450
353,murray bridge,-35.1167,139.2667,66.99,88,53,20.96,AU,1612496424
354,lorengau,-2.0226,147.2712,80.8,75,100,6.35,PG,1612496282
355,myitkyina,25.3833,97.4,75.02,30,0,2.82,MM,1612496451
356,marion,39.7684,-86.1555,30.99,86,90,31.07,US,1612496451
357,wuwei,37.9281,102.6414,42.96,36,0,2.35,CN,1612496452
358,yaguaron,-25.6,-57.3,69.8,83,0,4.61,PY,1612496452
359,gunjur,13.2019,-16.7339,69.8,78,0,10.36,GM,1612496452
360,cortez,37.3489,-108.5859,30.2,47,1,9.46,US,1612496452
361,sorland,67.667,12.6934,37.09,77,100,18.95,NO,1612496453
362,onguday,50.75,86.15,26.01,90,100,0.43,RU,1612496453
363,rafai,4.95,23.9167,68.31,81,60,2.84,CF,1612496453
364,cidreira,-30.1811,-50.2056,68.38,76,1,16.22,BR,1612496287
365,hirara,24.8,125.2833,73.4,49,20,10.36,JP,1612496453
366,ardesen,41.1911,40.9875,53.6,76,75,3.44,TR,1612496454
367,alice springs,-23.7,133.8833,75.2,60,90,10.36,AU,1612496454
368,lavrentiya,65.5833,-171.0,-7.17,90,100,18.77,RU,1612496252
369,mangrol,21.1167,70.1167,70.47,38,0,11.79,IN,1612496454
370,manado,1.487,124.8455,84.2,70,40,11.5,ID,1612496267
371,nantucket,41.2835,-70.0995,28.4,86,1,6.91,US,1612496455
372,vallenar,-28.5708,-70.7581,63.99,64,90,2.53,CL,1612496455
373,belyy yar,53.6039,91.3903,10.4,85,100,2.24,RU,1612496455
374,aklavik,68.2191,-135.0107,-36.4,74,99,8.05,CA,1612496253
375,sabang,5.8933,95.3214,81.46,76,48,25.61,ID,1612496456
376,sao filipe,14.8961,-24.4956,71.71,74,100,11.01,CV,1612496456
377,erzin,36.9559,36.2,55.0,64,0,11.01,TR,1612496456
378,rongcheng,30.634,117.8517,52.32,84,98,4.52,CN,1612496457
379,usinsk,65.9939,57.5281,-3.5,91,100,17.67,RU,1612496457
380,saint-augustin,51.226,-58.6502,34.32,95,100,14.29,CA,1612496249
381,sibu,2.3,111.8167,84.2,79,40,6.91,MY,1612496457
382,jalu,29.0331,21.5482,50.07,88,0,3.36,LY,1612496457
383,isangel,-19.55,169.2667,87.8,62,75,3.44,VU,1612496458
384,nhamunda,-2.1861,-56.7131,74.95,95,69,2.77,BR,1612496458
385,puerto cabezas,14.0351,-83.3888,71.13,84,15,8.19,NI,1612496458
386,isla mujeres,21.2311,-86.731,75.0,68,20,6.91,MX,1612496459
387,yongan,39.6957,113.6871,36.61,65,0,24.18,CN,1612496459
388,lhokseumawe,5.1801,97.1507,83.43,68,81,8.14,ID,1612496459
389,kostroma,57.7708,40.9344,12.2,85,40,4.47,RU,1612496460
390,nishihara,26.1842,127.7558,71.6,37,40,9.22,JP,1612496315
391,ban dung,17.699,103.2596,80.01,44,0,5.21,TH,1612496460
392,dryden,49.7833,-92.7503,3.2,78,90,11.5,CA,1612496274
393,lazaro cardenas,17.9583,-102.2,73.38,81,2,2.89,MX,1612496460
394,san cristobal,7.7669,-72.225,69.4,67,79,1.23,VE,1612496389
395,halifax,44.6453,-63.5724,35.6,100,100,1.14,CA,1612496246
396,touros,-5.1989,-35.4608,78.8,78,20,9.22,BR,1612496461
397,alta floresta,-9.8756,-56.0861,72.25,97,76,2.33,BR,1612496236
398,pevek,69.7008,170.3133,-14.46,81,81,1.32,RU,1612496461
399,harnosand,62.6323,17.9379,18.0,85,30,9.22,SE,1612496462
400,kutum,14.2,24.6667,49.77,46,2,11.16,SD,1612496462
401,leopold,-38.1833,144.4667,75.0,100,75,14.97,AU,1612496462
402,san juan,-31.5375,-68.5364,77.68,22,0,7.16,AR,1612496462
403,santa fe,-31.6333,-60.7,64.6,55,0,2.1,AR,1612496463
404,kidal,18.4411,1.4078,66.87,23,79,12.44,ML,1612496463
405,evensk,61.95,159.2333,1.18,89,100,16.2,RU,1612496463
406,pangkalanbuun,-2.6833,111.6167,90.3,56,43,4.85,ID,1612496463
407,turukhansk,65.8167,87.9833,-25.96,86,99,2.93,RU,1612496464
408,fujimi,35.8578,139.5577,53.01,37,20,6.91,JP,1612496464
409,buenaventura,3.8801,-77.0312,66.0,74,85,1.48,CO,1612496464
410,caravelas,-17.7125,-39.2481,76.5,85,0,7.36,BR,1612496464
411,palenque,17.5167,-91.9667,65.66,80,0,5.19,MX,1612496464
412,nouadhibou,20.931,-17.0347,62.6,94,55,4.61,MR,1612496465
413,kasongo,-4.45,26.6667,67.17,99,62,2.3,CD,1612496465
414,erenhot,43.6475,111.9767,25.07,92,86,13.62,CN,1612496465
415,bathsheba,13.2167,-59.5167,78.8,65,40,18.41,BB,1612496465
416,qaqortoq,60.7167,-46.0333,15.8,38,74,3.44,GL,1612496465
417,shenandoah,30.4013,-91.0009,64.99,85,100,1.99,US,1612496466
418,agadez,19.75,10.25,55.36,37,0,7.07,NE,1612496466
419,bairiki,1.3292,172.9752,86.0,70,40,9.22,KI,1612496466
420,bereda,43.2686,-7.5406,45.0,100,95,1.99,ES,1612496466
421,coruripe,-10.1256,-36.1756,77.99,81,25,11.54,BR,1612496467
422,conceicao do araguaia,-8.2578,-49.2647,75.07,81,64,2.53,BR,1612496467
423,bonthe,7.5264,-12.505,76.84,88,20,5.99,SL,1612496254
424,bilma,18.6853,12.9164,58.75,33,0,8.16,NE,1612496467
425,alice town,25.7167,-79.3,68.36,60,37,11.77,BS,1612496467
426,taywarah,33.35,64.4167,28.47,70,0,3.11,AF,1612496468
427,adrar,20.5022,-10.0711,64.44,26,57,4.7,MR,1612496468
428,dolores,-36.3132,-57.6792,55.31,94,0,7.65,AR,1612496468
429,horsham,51.064,-0.3272,46.99,100,75,4.61,GB,1612496393
430,dawei,14.0833,98.2,91.99,29,16,0.94,MM,1612496469
431,sault sainte marie,46.5168,-84.3333,30.2,93,90,10.36,CA,1612496440
432,clearlake,38.9582,-122.6264,48.99,50,0,1.99,US,1612496469
433,wielun,51.221,18.5696,28.0,87,85,5.37,PL,1612496470
434,simao,22.7886,100.9748,71.65,30,0,3.65,CN,1612496319
435,sauk village,41.4884,-87.5675,23.0,86,90,26.46,US,1612496470
436,flinders,-34.5833,150.8552,84.0,69,18,7.0,AU,1612496470
437,ures,29.4333,-110.4,66.99,40,82,3.0,MX,1612496470
438,longhua,23.6137,114.1919,82.47,32,0,1.72,CN,1612496471
439,ancud,-41.8697,-73.8203,68.0,49,0,6.91,CL,1612496272
440,ust-maya,60.4167,134.5333,-30.33,80,100,0.36,RU,1612496471
441,aksarka,66.5606,67.7975,-23.26,87,63,4.94,RU,1612496471
442,bielsk podlaski,52.7651,23.1865,14.0,87,27,3.96,PL,1612496472
443,celendin,-6.8703,-78.1517,52.79,83,99,1.52,PE,1612496472
444,el campo,29.1966,-96.2697,66.99,55,90,11.5,US,1612496473
445,laibin,23.7,109.2667,77.13,31,0,8.81,CN,1612496473
446,basco,20.4487,121.9702,71.35,73,57,19.15,PH,1612496473
447,burlington,39.8835,-74.6413,32.0,64,1,4.41,US,1612496292
448,kruisfontein,-34.0033,24.7314,62.01,96,0,1.01,ZA,1612496474
449,dongkan,33.9997,119.8308,52.41,54,90,10.09,CN,1612496474
450,auki,-8.7676,160.7034,85.17,66,28,8.57,SB,1612496474
451,sanquelim,15.5833,74.0,75.2,69,30,5.75,IN,1612496475
452,casper,42.8666,-106.3131,27.0,73,20,6.91,US,1612496475
453,taybad,34.74,60.7756,48.2,46,20,13.62,IR,1612496475
454,tomatlan,19.9333,-105.25,65.46,80,0,3.31,MX,1612496475
455,sambava,-14.2667,50.1667,76.8,85,65,5.55,MG,1612496476
456,dukat,62.55,155.55,-19.95,85,100,4.16,RU,1612496324
457,puerto madryn,-42.7692,-65.0385,85.37,18,0,27.07,AR,1612496476
458,baruun-urt,46.6806,113.2792,13.73,93,21,10.4,MN,1612496476
459,muroto,33.2833,134.15,53.6,30,75,4.61,JP,1612496476
460,geraldton,-28.7667,114.6,78.8,29,75,25.32,AU,1612496477
461,tuatapere,-46.1333,167.6833,65.34,58,63,7.14,NZ,1612496253
462,point pedro,9.8167,80.2333,77.9,74,45,13.13,LK,1612496477
463,saint-paul,-21.0096,55.2707,77.0,78,75,12.66,RE,1612496477
464,shenzhen,22.5455,114.0683,75.0,59,12,3.0,CN,1612496220
465,panaba,21.2833,-88.2667,64.06,83,0,8.12,MX,1612496478
466,mehamn,71.0357,27.8492,27.05,91,100,13.22,NO,1612496246
467,maceio,-9.6658,-35.7353,75.2,94,0,3.44,BR,1612496478
468,minggang,32.4586,114.0486,58.64,38,0,7.83,CN,1612496478
469,solwezi,-12.1688,26.3894,59.56,94,93,1.34,ZM,1612496479
470,redding,40.5865,-122.3917,57.2,30,1,10.36,US,1612496479
471,saskylakh,71.9167,114.0833,-32.76,81,73,1.23,RU,1612496479
472,amuntai,-2.4177,115.2494,75.4,95,100,1.59,ID,1612496479
473,maumere,-8.6199,122.2111,83.57,77,85,11.43,ID,1612496479
474,taikang,46.8333,124.4167,9.5,92,98,4.88,CN,1612496480
475,kungurtug,50.5994,97.5228,17.04,91,100,3.44,RU,1612496480
476,okhotsk,59.3833,143.3,3.72,88,93,10.74,RU,1612496275
477,general roca,-39.0333,-67.5833,75.2,57,0,2.3,AR,1612496481
478,karlskoga,59.3267,14.5239,14.0,85,20,8.05,SE,1612496481
479,willmar,45.1219,-95.0433,8.6,72,1,20.71,US,1612496481
480,banyo,6.75,11.8167,61.81,30,7,2.26,CM,1612496481
481,kirakira,-10.4544,161.9205,84.63,73,64,8.08,SB,1612496482
482,deputatskiy,69.3,139.9,-25.94,88,88,3.42,RU,1612496482
483,belaya gora,68.5333,146.4167,-18.47,87,69,10.02,RU,1612496482
484,sioux lookout,50.1001,-91.917,5.0,78,90,12.66,CA,1612496482
485,manokwari,-0.8667,134.0833,82.74,73,100,8.59,ID,1612496483
486,jabinyanah,35.035,10.9081,55.4,47,20,5.75,TN,1612496483
487,bonavista,48.6499,-53.1147,36.0,100,97,1.14,CA,1612496483
488,bocas del toro,9.3333,-82.25,66.0,67,98,7.0,PA,1612496483
489,sept-iles,50.2001,-66.3821,30.2,80,88,4.61,CA,1612496188
490,chufarovo,54.0963,47.3367,36.41,97,100,10.85,RU,1612496484
491,celestun,20.8667,-90.4,71.37,67,0,10.83,MX,1612496484
492,las palmas,28.4204,-14.0131,57.2,72,73,16.11,ES,1612496484
493,college,64.8569,-147.8028,-22.0,68,40,2.64,US,1612496316
494,bhag,29.0415,67.8239,65.48,25,0,1.63,PK,1612496485
495,lujan,-34.5703,-59.105,68.0,80,0,1.99,AR,1612496485
496,berlevag,70.8578,29.0864,27.41,90,100,13.89,NO,1612496485
497,constitucion,-35.3333,-72.4167,59.58,90,89,3.09,CL,1612496291
498,omboue,-1.5746,9.2618,77.86,88,89,4.72,GA,1612496485
499,thaba-tseka,-29.522,28.6084,50.63,87,0,0.85,LS,1612496199
500,san luis,-33.295,-66.3356,67.91,36,0,9.8,AR,1612496320
501,yerofey pavlovich,53.9667,121.9667,-6.81,82,71,3.33,RU,1612496486
502,moron,-34.6534,-58.6198,73.0,60,0,1.99,AR,1612496486
503,sibolga,1.7427,98.7792,85.39,62,100,4.32,ID,1612496486
504,srivardhan,18.0333,73.0167,78.62,42,1,5.93,IN,1612496487
505,faya,18.3851,42.4509,59.0,51,0,8.05,SA,1612496293
506,pitea,65.3172,21.4794,19.4,93,90,5.75,SE,1612496487
507,barreiras,-12.1528,-44.99,72.07,92,98,1.12,BR,1612496487
508,along,28.1667,94.7667,70.9,36,70,0.45,IN,1612496487
509,andenes,69.3143,16.1194,35.6,69,75,24.16,NO,1612496323
510,dingle,10.9995,122.6711,82.94,79,83,15.46,PH,1612496488
511,mirabad,30.4362,61.8383,53.94,37,0,6.08,AF,1612496488
512,leo,11.1,-2.1,72.73,21,73,7.09,BF,1612496488
513,mendeleyevsk,55.9082,52.2905,33.8,100,90,11.18,RU,1612496488
514,acapulco,16.8634,-99.8901,78.8,78,75,3.44,MX,1612496274
515,roma,43.2128,-75.4557,23.0,80,1,6.91,US,1612496489
516,itoman,26.1247,127.6694,71.01,49,40,9.22,JP,1612496489
517,pemba,-12.974,40.5178,77.0,94,75,6.91,MZ,1612496270
518,comodoro rivadavia,-45.8667,-67.5,77.0,31,0,14.97,AR,1612496255
519,kastamonu,41.5,33.6667,41.79,83,57,9.19,TR,1612496490
520,grand gaube,-20.0064,57.6608,80.01,74,2,5.01,MU,1612496230
521,stornoway,58.2093,-6.3865,35.6,93,75,27.63,GB,1612496490
522,yarkovo,57.4028,67.0786,18.23,98,98,4.9,RU,1612496490
523,griffith,41.5284,-87.4237,26.6,86,90,26.46,US,1612496491
524,umm bab,25.2142,50.8072,64.0,100,90,3.44,QA,1612496491
525,bongor,10.2806,15.3722,66.09,26,18,7.02,TD,1612496491
526,pyapon,16.2833,95.6833,87.17,37,0,5.57,MM,1612496491
527,paamiut,61.994,-49.6678,18.21,75,0,5.03,GL,1612496491
528,coihaique,-45.5752,-72.0662,60.8,63,0,2.3,CL,1612496492
529,prince rupert,54.3161,-130.3201,39.2,93,90,6.91,CA,1612496492
530,sorong,-0.8833,131.25,83.95,68,100,5.01,ID,1612496492
531,dombarovskiy,50.7587,59.5386,34.7,98,100,9.15,RU,1612496493
532,jojoima,7.8792,-10.7878,71.78,95,0,2.21,SL,1612496493
533,fonte boa,-2.4959,-66.2662,75.54,94,100,1.66,BR,1612496300
534,domoni,-12.2569,44.5319,81.5,73,84,3.56,KM,1612496493
535,kupang,-10.1667,123.5833,84.2,84,40,16.11,ID,1612496493
536,marsh harbour,26.5412,-77.0636,65.55,55,56,7.18,BS,1612496494
537,tortoli,39.9256,9.6572,53.01,59,37,2.62,IT,1612496494
538,avera,33.194,-82.5271,50.0,49,1,6.91,US,1612496494
539,kpandu,6.9954,0.2931,78.94,77,5,5.19,GH,1612496494
540,iskateley,67.6803,53.1512,-15.25,87,95,14.2,RU,1612496495
541,balkanabat,39.5108,54.3671,53.04,42,100,6.42,TM,1612496495
542,gravdal,68.1214,13.5031,35.11,84,100,16.89,NO,1612496495
543,torrington,41.8007,-73.1212,25.0,85,4,1.01,US,1612496496
544,kincardine,56.0667,-3.7167,42.8,87,90,12.66,GB,1612496496
545,puerto narino,-3.7703,-70.3831,75.2,100,40,2.37,CO,1612496496
546,ahuimanu,21.4447,-157.8378,71.6,56,40,11.5,US,1612496496
547,bethel,41.3712,-73.414,26.01,86,1,2.17,US,1612496298
548,sawakin,19.1059,37.3321,73.56,54,88,14.43,SD,1612496497
549,peremyshlyany,49.6652,24.5585,30.2,93,75,6.71,UA,1612496497
550,honiara,-9.4333,159.95,84.74,70,5,7.25,SB,1612496377
551,bitaogan,6.7684,126.0774,87.8,66,75,12.66,PH,1612496498
552,kalabo,-14.97,22.6814,66.31,92,92,3.31,ZM,1612496496
553,omsukchan,62.5333,155.8,-16.35,85,100,4.0,RU,1612496498
554,najran,17.4924,44.1277,55.4,35,0,3.18,SA,1612496498
555,punta de piedra,7.6176,-71.4916,77.94,60,88,2.44,VE,1612496499
556,lesnoy,57.6198,63.0784,21.31,98,85,5.97,RU,1612496499
557,mattru,7.6244,-11.8332,73.96,93,2,2.44,SL,1612496499
558,barpeta,26.3167,91.0,64.4,63,20,8.93,IN,1612496499
559,itaporanga,-7.3044,-38.1503,74.08,79,49,5.19,BR,1612496500
560,bentiu,9.2333,29.8333,70.12,23,0,7.29,SS,1612496500
561,suwannaphum,15.6035,103.8021,82.99,53,0,11.5,TH,1612496500
